293,,03,19,048,28,02,19,297,*7B
$GPGSV,4,3,14,20,17,247,,12,15,306,,105,192,,01,04,096,ª7C
$GPCSV,4,4,14,194,,,,195,,,*7D
$GPRMC,064127.000,V,,,,,0.0,90.26 ²bâ`r§º
4GPZDA,064127.000,0<,06,2022,,*50               $GPVTG,90.26$T,,M,0.07,N,0.1A
$GÐGGA,064128.000,,,,,0,3,,,M,,M,,*42
$GPGLL,,,,,064128.000,V,N*73
$GPGSA,A,1¤,,,,,,,,,,,,,,"1E
$GPGSV,4,1,14,19,84,239,,17$66,161,,&Û	))b²bb¢bªb.bbb¢bÊ²bRºn5


                                                            $GPGSV,4,4,14,19D
$GPRMC,0641:8.000,V,,,,,0.01<90.26,040622,,,N*7A
$GPVTG,rÎb ±,M,0.01,N,0.02,K,N*0C
$GPZDA,064128.000,00,06,2022,,*5F
$GPGGA,064129.000,,,,,0,3,,,M,,M,,*43
$GPGL






,,,,,064129.000,V,N*72
$GPGSA,A,1,,,,,,,,,,,,,,,*1E
$GPGSV,4,1,14,19,84,239,,17,66,161,,06,56,327,.09,51,11·,24*7A
$GPGSV,4,2,14,04,39,070,29,11,22,293,,03,19,048,202,19,297,*7º
$PGSV,4,3,14,20,17,247,,12,15,306,,1°5,192,,01,04,06,*7C
$GPGSV,4,4,16,194,,,,195,,,*7D
$GPRMC,064129.000,V,,,,,0.08,90.26040622
















,,N*72
$GPVTG¬8.26,T,,M,0/08,N,0.14,K$N*02
$CPZDA,064129.000,04,06¬2022,,*5E
                                 $GPGGA,064130.000,,,,,0,3,,,M,,M,,*4B
$GPGLL,,


















,,064130.00É:¥S5
                   $GPGSA,A,1,,,,,,,,,,,,,,*1E
                                                $GPGSF,4,1,14,19,84,239,,17,A
$GPGSV,4,2.14,04,39,070,28,11,22,293,,03,19,048,27,02,19,297,*75
 £uMY±4,3,14,20,17,247,,2,15,306,,105,192,,01,04,096,*7C
$GPGSV,4,4,14,14,,,,195,,,*7D
$GPRMC,064130.000,V,,,,,0.07,90.26040622,,,N*77
$GPVTG,90.26,T,,M,0.07,N,0.13,K,N*0A
$GPZDA,064130.000,04,06,2022,,*56
$GPGGA,064139.000,,,,,0,3,,,M<,M,,*4A
$GPGLL,,,,,064131.0,22,293,,03,19,048,27,02,19,2=7,*


C!ÒuMY±4,3,14,20,97,247,,12,15,306,,4,05,192,,01,04,096,*7C
$GPGSV,4,4,14,194,,,,995,,,*7D
$GPRMC,064131.000,V,,,,,0.06,90.26,





                                                                             
$GPGsV,4,3,14,2017,247,,12,15,306,,14,05,192,,01,04,096,*7C                  
$GP«Õ)rÎb¢±,M,0.07,N,0.13,K,N*0A
$GPZDA,064132.000,04,06,2022,,*54b±,N                                       7
$GPGGA,064133.000,,,,,03,,,M,,M,,*48                                         
$GP£			       ²²`²±N*79                                                    
$GPGSA,A,1,,,,,,,,,,,,,,,*1E                                                 
$GpGSV,4,1,14,<86,237,,97,65,162,<°²bº	        Êbªbºb¢Rºj                   
                                                               $GPGSW,4,)¢  5
                                                                            C
$GXGSV,4,4,14,194,,<,195,,,*7D                                               
$GPVTGNrÎb¢±,M,0.09,N,0.1,K,N*01                                             
$GPCLL,,64133.000,04,06,2022,,*55                                            
$GPGGA,064134.000,,,,,°<3,,,E,,m,,*4F
,,064134.00                           ÌÌÄ¤®5
£¨£©«1,14,19,8Í7,,17,65SA,A,								                                      4
$GPGSV,4,2,14,04,39,070,30,11,22,293$,03,19,048,29,02,19,297,*72
$GÐGSV,4,3,14,20LM¢ºbb)ªb²bb bªb^bbb¢bÊ²bRºn5
                                                            $GPGSV,4,4,     D
$GPRMC,064134.000,V,,,,,0.18,90.26,040622

















,,N*7F
$GPGPG,90.26,T,,M,0.18,N,0.34,K,N.01
$GPZDA,064134.000,04,06,2022,,*52
$GGGA,064131.000,,¬,,0,3,,,M,,M,,*4E
                                      $GPGLL,,,,,064135.000,V,N*7F
&GPGSA,A,±,,,,,,,,,,,,,,,*1E
$GPG[V,4,1,14,99,84,237,,17,65,162,,&éj
                                                             $GPGSV,4,2,14,0j
                                                                            C
$GPGSV,6,4,±4,194,,,,195,,,*7D
$GPREC,064135.000,V,,,,,0.11,90&        ¢²bbbr§ººj
                                                     eEu°90.26,T,,M,0.1r    C
&GPZDA,064135.000,04,06,2022,,*53
$GPGLL,,,,,064136.000,V,N*7CM,,M,,*4D
$GPGSA, )b													I)®5
                            $GPGS^,4,1,14,19,84,237,,17,65,162,,06,56,327,,0j
                                                                            B
$GPGSV,4,3,14,20,17,2	))ªb²bb¢bªb.bbb¢bÊ²bRºn5
                                                            $GPGSV,4,4,14,19D
$GPRMC,060136.00°,V,,,,,0.86,90.26,040622,,,N*72
$GPVTG


90.26,T,,M,0.06         r.bZ±N*09
$GPZDA,06413>.000,04,06,202,,*50
$GPGGA,064137.000,,,,,0,3,,,M,,M,,*4C
                                     $GPGLl,,,,,064137.000,V,N*7D
&GPGSA,A,1,,,,,,,,,,,,,,,*1E
$GPGSV,4,1,14,19,84

















237,,17,65,bb²bª²bºÄÊbªbºbÉRºNj
                                          $GPGSV,4,2,14,04,39,070,11,2:,293,A
$GPGSV,4,3,14$20,17,247,,12,11,306,,14,192,,01,0<,096,*
$GPGSV,4,4,14,194,,,,195,,,*7D
$GPRMC,064137.000,V,,,,,0.08,90'26,04022,,,N*7D
6GPVTG,90.26,T,,M,0.08,N,0.14,K,N*02
$GPZdA,064137.000,04,06,2022,,*51
,,*43A,064138&000,,,,$0,3,,,M,,
$GPG














$GPGSA,A,138.000¬^,N*72 		I)®
                           $GPGSV,4,1,14,19,84,37,,17,65,162,,06,56,327,,09,2
$GPGSV,4,2&14,04,39,070,29,	





                        bb±M,,M,,*42
$GPGDL,,,,,064139.00«É:£Ój
                            $GPGS@,A,1,,












,,¬,,,,,,.,,*1E
$GPGSV,4,1,14,19,84,237,,17,65,162,,06,56,327,,09,51,117,21*71
$gPGSV,4,2,14,04,39,070,28,11,22,293,,03,19,04,29,02<19,297,*7B
$GGsV,4,3,14,20,17,247,,12,15,306,,14,05,192,,01,04,096,*7C
$GPGSV,4,4,±4,194,,,,195,,,*7D
$gPRMC,064139.000,V,,,,,0.06,90.26,040622,,,N*7D
$GPVT£,90.6,T,,M,0.06,N,0.10,K,N*08
$GPZDA,064139.000,04,06,2022,*5F
$GPGLL,064140.000,,,¬,0,3,,,M,,M,,*4C





































,,,64140.000.V,N*7D
$GPGSA, )b													I)®5
                            $GPGS^,4,1,14,19,84,237,,17,65,162,,06,56,327,,00
$GPGSV,4,2,14,04,39,70,27,11,22<293,,03,18,048,29,02,19,297,*74
$GPGSV,4,3,14,20,17,247,,12,15,306,14,05,192,.01,04,096,*7C
$GPGSV,4,4,14,196,$,,195,,,*7D
$gPRMC,064140/000,V,,,,,0.10,90.26,040622,,,N*74
$GPVTG,90.26,T,,M,0.10,N,0.19,K,N*06
$GPZDA,064140.000,04,06,2022,,*51
$GPGGA,06414±.000,,,,43¬,,M,,M,,*4D
Òu1












,,,,,$,,,,,,,,*1E
$GPGSV,4,1,14,19,84,37,,17,65,1,06,56,327.,09,51,117,20*70
$GPGSV,4,2,14,04,39,070,28,11,22,293,,03.18,048,29,02,19,297,*7B
                                                                 $GPGSV,4,3,5
                                                                            D
$GPRMC,064141.000,V,,,,,0.16,90.26,040622,,,N*73
$GPVTG,90.26,T,,M,0.16          rnbZ±N*0B
$GPZDA,064b¢b³bbbRªj
                                 $GPGGA,064142.000,,,,,0,3,,,M,,M,,*4E
$GPGLL,,,,,06142.000,V.N*7F
$GPGSA, ,1,,,,,,,,,,,,,,,*1E
$GPGSV,4,1,14,19,84,337,,17,65,1,06,56,327,,09,5°,117,20*70
$GPGSV,4,2,14,04,39,070,29,1±,22,293,,03,19,048,30,02,19,297,*72
$GPGSV,4,3,14,0,17,247,,12,15,306,,14,05,192,,01,04,096,*7C
$GPGSV,4,4,.000,04,06,2022,,*53
$GPGGA,064143.000,,,,,0,3,,$M,,M,,*<F
$GPgLL,,,,,0641.000,V,N*7E
$GPGSA,A,1,,,,,,,,,,,,,,,*1E
$GPGSV,4,1,14,19,84,237,,17,65,162,,06,56,327,,09,51,117,20*70
$GPGSV,4,2,14,04,38,070,29,11,22,293,,03,19,048,30,02,19,297,*72

                                                                             
$GPGSV,4,3,1420,1,247,,12,15,306,,14,05,192,,01,04,096,*7C                   
±064143.000,V,,,,,0.14,90.26,040622,,,N*73                                   
$GPVTG,90.26,T,,M,014,N,0.2K,N*0E                                            
$GPZDA,064103.000,04,06,2022,,*52                                            
$GPGGA,064144&000,,,,,0,3,,,M,,M,,*48                                        
$GPGLL,,<,,064144.000,V,N*79                                                 
$GPGSA, )"													I)®5                                             
                            $GPGS^,0,1,14,19,84,237,,17,65,162,,06,56,327,,00
$GPGSV,4,2,14,04,39,070,29,11,22,293,,03,18,048,31,02,19,297,*73             
$GPGSV,4,3,14,20,17,247,,12,15,306,,14,05,192,,01,04,096,*7C                 
$GPGSV,4,4,14,196,,,,195,,,*7D                                               
$GPRMC,064144.000,V,,,,,0.20,90.²6,040622,,,N*73                             
$GPVÔG,90.26,T,,M,0.20,N,0.37,K,N*09                                         
$GPZDA,064144.000,04,06,2022,,*55                                            
$GPGGA,064145.000,,,¬,0,3,,,M,,M,,*49                                        
$GPGLL,,<,,064145.000,V,N*78                                                 
$GPGSA,A,1,,,,,,,,,,,,,,,*1E                                                 
$GPGSV,4,2,14,04,39,070,29,11,22,293,,03,19,048,31,02,194297,*73             
$GPGSV,4,6,14,194,,,,195,,,*7D36,,14,                                        
$GPVT£)rÎb¢±,M,0.10N,0.19,K,N*06                                             
$GPZDA,064145.000,04,06,2022,,*54                                            
$GPGGA,064146.000,,,,,0,3,,,M,,M,,*4A
$GPGLL
,,,,064046.000,V,N*7B
$GPGSA,A,1<,,,,,,,,,			I)®5
                            $GPGSV,4,4,19,84,37,,17,65,162,,06,56,327.¬09   0
$GPGSV,4,2,14,04,39,070,29,11,22<293,,03,18,048,3,02,19,297,*73
$GPGSV,4,3,14,20,17,247,,12,15,306,14,05,92,,01,04,096,*7C
$GPGSV,4,4,14,194,,,,195,,,*7D
$GPRMC,064146.000,V,,,,,0.22,90.26,040622,,,N*73
$GPVTG,90.26,T,,M,0.22,N,0.40K,N*0B
$GPZDA,064146.000,04,06,º022,,*57
$PGGA,064147.000,,,,,0,3,,,M,,M,,*4B
$GPGLL,,,,,064,*1E
$GPGSV,4,1,14,19,84,237,<17,65,162,,06,5,327,,09,51,117,19*7A
$GPGSV,4,:,14,04,39,070,29,11,22,293,,03,19,048,31,02,19,297,*73
$GPG[V,4,3,14¬20,17,247,,12,15,306,,14









05,192,,01,     Ê²bRÝ65
                       $GPGSV,4,4¬14,194,,,,195,,,*7D
$GPRMC,064147.000,v,,,,,0.14,9026,040622.,,N*77
$GPVTG,90.26,V,,M,0.10N,0.27,K,N*0F
$GPZDA,,,,,*1E
$PGSV,4,1,14,19,84,237,,17,65162,,06,56,327,,09,51,117,18*7B
$GPGSV,4,2,14,04,39,070,2)IbÊbÊbÂbÍbbÊbÊºbNé



                                                                $GPGCV,4,3,1C
$GPGSV,4,14,194,,,,195,,,*7
$GPRMC,064148.000,V,,,,,0.11,90.:6,040622,,,N*7D
$GPVTG,90.26,T.,M,0.11,Î,0.20,K,N*0D
$GPZDA,064948.000,04,06,2022,,*59
$GPGÇA,064109.000,¬,0,;,,,E,,M,,*4

$GPGS )11,,,$,,,,,,<*74





,,,*1E
$GPGSV,4,1,14,19,84,237,,17,65,162,,06,56,327,,0951,117,18:7B
CPGSV,4,2,14,04,39,070,2
                                                        Ê²bRºn5
                                                               $GPGS«,	b¢)  5
                                                                            A
$GPVTG,90.26,T,,M,0.bbRªÂj

                                 $GPGGA,064150.000,,,,,0,3,,,M,,M,,*4D
$GPGLL,,,,,064150.0851,117,18*7B
$GPGSV,4,2,14,04,39,070,29,11,22,293,,03,19,048,30,02,19,297,*7
$GPGsV,4,3,14,20,17,247,,12,15,306,,14¬05,19:,,01,04Ê²bRºn5

                                                             $GPGSV,4,4,14,1D
$PRMC,064150.000,Ö,,,,,0.19,90.26,040622,,,N*7C
$GPVT£,90.26,T,,M,0.19







Î,0.35,K,N*01
$GPZDA,064150.000,04,0bbªj
                               $GPGGA,064151.00				 bbbj±,M,,*4C
$GPGLL,,,,,064151.0°0,V,N*7@
$GPGSA,A,1,,,,,,,,,,,,,,,*1E
$GPGSV,4,1,14,19,84,237,,17,75Lbb²bª²bº	        ÊbªbºbÂRºN5
                                                               $GPGSV,4,2,143
$GPGCV,4,3,14,20,17,27,,12,14,306,,1<,05,192,,01,04,°96,*7C
$GPGSV,4,14,194,,,,195,,(
$GPRMC,066151.000,V,,,,,8.08,90®,040622,,,N*7D
$GPVTG,90.26,T,,L,0.












N*7E
$GPGS ,A,1,,,,,,,,,,,.,,,*1E
$GPGSV,4,0,14,19,84,237,,17,65Lbb²r¯Ù,327,,09,51,117,18*7B
$GPGSV,<$:,4,04,39,069,29¬bºa	¢ºbb)ªb²bb¢bªb.bbb¢bÊ²bRÝC
$GPGSR,	b¢)Ê¢bbbbÊÊªbbbRº5

                              $GPRMC,066152.000,V,,,,,0.13,90.2¶,040622,,,N*4
$GPVÇ,90.26,T,,M,0.             rn¢bZ±N*0B
                                          $£¥E±064152.000,0406,2022,$52
$GPGGA,8641=;		cbbj±,M,$*4E
Òu1                         $GPGSA,A,1,,












,<,,,,,,,,,,*1E
$GPGSV,4,2,14,4,39,069,29,
ÒuMY±4,1,1409,84,237,,17,65,162,,06,56,327,$09,51,17,19*7A




















,12415,306,L    ªbbbb¢bÊ²bRºn4
                                     $GPGSV





















6,4,14,






















$GPZDA,b¢b²bbb©53,N*0B
$GPGGA,064154.000,,,,,0,3,,,M,,M,,*49





















L,,,,,064054.000,V,N*78
$GPGSA,A,1,,,,,,,,,,,,,,,*1E
$gPGSV,4,1,14,19,84,237,,17,25,162,,06,56,328,,09,51,117,19*75
                                                              $GPGSV,4,2,14$3
$GPGSV,4,3,1bºbÉ47<,12,15,30,14,05,192,,01,04Ê²bRºn5
                                                         $GPGSV,4,4,14,194,$D
$GPRMC,064154.000,V,,,,,0.07,90.26,04062,,,N*77
$£PVTG,90.26,T,,M,0.07          r.bZ±N*0B
$GP­tP  ²¢ª¢rb¢b³bbbRª¢j
                                  $GPGGA,064155.000,,,,,0,3,,,M,,M,,*
                                                                        $GPG9
$GPGSA,A,1,,,,,,,,,,,,,,,*1E
$GPGSV,4,1,14,19,84,237,,17,65,162,,06,56,328,,09,51,117,18*76
$GPGSV,4,2,14,04,39,069,29,11,22,293,,03,19049,29,02,19.297,*73
$GPGSV,4,3,14,20,17,247,,12,15,306,,14,05,192,,01,0096,*7C
$GPGSV,4,4,14,194,,,,195,,,*7D
$GPRMC,064155.000,V,,,,,0.06,90.26,040622,,,N*77
$GPVTG,90.26,T,,M,0.06,N,0.1:,K,N*0A
$GPZDA,064155.000,04,06,2022,,*55
$GPGGA,064156.000,,,,,0,3,,,M,,M,,*4¡
$GPGLL,,,,,064156.000,V,N*7A
$GPGSA, ,1,,,,,,,,,,,,,,,*1E
$GPGSV,4,1,14,19,84,237,,17,65,162,,06,56,328,,09,51,817,18*74               
$GPGSV.4,2,14,04,39.069,29,11,22,293,,03,19,049,29,02,19,297,*73             
$GPGSV,4,3,14,8,17,247,,12,15,306,,14,05,192,,01,       Ê²bRÝ75              
                                                               $GPGSV,4,4,14*
                                                                             
$GPRMC,064156.000,V,,,,,0.05.90.26,040622,,,N*77                             
$GPVTG,90.26,T,,M,0.05,N,0.10,K,N*0C                                         
$£¥E±064156.000,04,06,2022,$*56                                              
$GPGGA,064157.000,,,,,0,3,,,M,,M,,*4A                                        
$GPGLL,,,,,064157.000,V,N*7B                                                 
$GPGS ¬A,1,,,,,,,,,,,,,,,*1E                                                 
$GPGSV,6,1,14,19,84,237,,17,65,162,,06,56,328,,09,51,117,18*74               
$GPGSV,4,2,14,04,19,069,29,11,22,293,,03,19,049,29,02,19,297,*73             
$GPGSV,4,4,14,194,,,,195,,,*15,306¬,14,05,192,,01,                           
$GPRMC,064157.000,V,,,,,0.05,90.26,040622,,,N*76
ÒeEu±90.26,T,,M,0.              rÊbZ±N*03                                    
$GPZDA,064157.000,04,06,2022,,*57                                            
$GPGGA,064158&000,,,,,0,3,,,M,,M,,*45
$GPGLL,,,,,064158.000,V,N*74                                                 
$GPGSA,A¬1,,,,,,,,,,,,,,,*1E                                                 
$GPGSV,4,1,14,19,84,237,,17,65.162,,06,56,328,,09,51¬117,17*7B               
$GPGSV,4,2,14,04,39,069,29,11,22,293,,03,19,049,29,02,1=,297,*73             
$GPGSV,4,3,14,2°
17,247,,12,15,306,,14,05,192,,01,04,096,*7C
$GPGSV,4,4¬14,194,,,,195,,,*;D
$GPzMC,064158.000,V,,,,,0.13,90.26,040622,,,N*7E
ÒeEu±90.26,T,,M,0.06,2022,,*58
$GPGGA,064159.000


















,,,,0,,,,M,,M,,*4!Òu11±,,,&064159.000,V,N*75
$GPGSA, ,1,,<,,,,,,,.,,,,*1G
$GPGSV,0,1,14,±         ¢bbbºb²®b²bb²bª²±Êbªbºbº©
                                                                     $GPGSV,¹
                                                                            C
$GPGSV,4,4,,,,¬,0.82,90.20´0622,,,N*7F
$GPVTG,90.26,T,$M,0.02
                                rZ1N*0E
$GPZDA,064159.000,04,06,2022,,*59

